{"type":"FeatureCollection","features":[{"type":"Feature","properties":{"name":"Subway","Address":"1401 University Avenue","City":"Madison","Country":"United States","State":"WI"},"geometry":{"type":"Point","coordinates":[-89.409206,43.0731136]}},{"type":"Feature","properties":{"name":"Subway","Address":"202 North Charter Street","City":"Madison","Country":"United States","State":"WI"},"geometry":{"type":"Point","coordinates":[-89.405959,43.071333]}},{"type":"Feature","properties":{"name":"Jimmy Johns","Address":"1 North Randall Avenue","City":"Madison","Country":"United States","State":"WI"},"geometry":{"type":"Point","coordinates":[-89.40877,43.068053]}},{"type":"Feature","properties":{"name":"Capriotti's Sandwich Shop","Address":"902 Regent Street","City":"Madison","Country":"United States","State":"WI"},"geometry":{"type":"Point","coordinates":[-89.401317,43.067819]}},{"type":"Feature","properties":{"name":"Fraboni's Italian Specialties","Address":"822 Regend Street","City":"Madison","Country":"United States","State":"WI"},"geometry":{"type":"Point","coordinates":[-89.400393,43.067831]}},{"type":"Feature","properties":{"name":"Subway","Address":"1 South Park Street","City":"Madison","Country":"United States","State":"WI"},"geometry":{"type":"Point","coordinates":[-89.399922,43.067096]}},{"type":"Feature","properties":{"name":"Newell's Deli","Address":"35 North Park Street","City":"Madison","Country":"United States","State":"WI"},"geometry":{"type":"Point","coordinates":[-89.400369,43.06904]}},{"type":"Feature","properties":{"name":"Milio's Sandwiches","Address":"377 East Campus Mall","City":"Madison","Country":"United States","State":"WI"},"geometry":{"type":"Point","coordinates":[-89.395555,43.073561]}},{"type":"Feature","properties":{"name":"Subway","Address":"731 State Street","City":"Madison","Country":"United States","State":"WI"},"geometry":{"type":"Point","coordinates":[-89.398676,43.07462]}},{"type":"Feature","properties":{"name":"Erbert & Gerbert's","Address":"540 University Avenue","City":"Madison","Country":"United States","State":"WI"},"geometry":{"type":"Point","coordinates":[-89.395694,43.073434]}},{"type":"Feature","properties":{"name":"Potbelly Sandiwch Shop","Address":"564 State Street","City":"Madison","Country":"United States","State":"WI"},"geometry":{"type":"Point","coordinates":[-89.395023,43.074884]}},{"type":"Feature","properties":{"name":"Cheba Hut","Address":"453 West GIlman Street","City":"Madison","Country":"United States","State":"WI"},"geometry":{"type":"Point","coordinates":[-89.394823,43.07347]}},{"type":"Feature","properties":{"name":"Silver Mine Subs","Address":"311 North Frances Street","City":"Madison","Country":"United States","State":"WI"},"geometry":{"type":"Point","coordinates":[-89.392634,43.074465]}},{"type":"Feature","properties":{"name":"Pita Pit","Address":"449 State Street","City":"Madison","Country":"United States","State":"WI"},"geometry":{"type":"Point","coordinates":[-89.393396,43.074475]}},{"type":"Feature","properties":{"name":"Subway","Address":"462 State Street","City":"Madison","Country":"United States","State":"WI"},"geometry":{"type":"Point","coordinates":[-89.392884,43.074953]}},{"type":"Feature","properties":{"name":"Which Wich","Address":"411 State Street","City":"Madison","Country":"United States","State":"WI"},"geometry":{"type":"Point","coordinates":[-89.392333,43.074611]}},{"type":"Feature","properties":{"name":"Quiznos Sandwich","Address":"5 North Pickney Street","City":"Madison","Country":"United States","State":"WI"},"geometry":{"type":"Point","coordinates":[-89.383095,43.075927]}},{"type":"Feature","properties":{"name":"Pinkus McBride","Address":"301 North Hamilton Street","City":"Madison","Country":"United States","State":"WI"},"geometry":{"type":"Point","coordinates":[-89.383846,43.079295]}},{"type":"Feature","properties":{"name":"Madison Market","Address":"703 University Avenue","City":"Madison","Country":"United States","State":"WI"},"geometry":{"type":"Point","coordinates":[-89.397822,43.072925]}},{"type":"Feature","properties":{"name":"Subway","Address":"19 West Main Street","City":"Madison","Country":"United States","State":"WI"},"geometry":{"type":"Point","coordinates":[-89.383386,43.073128]}},{"type":"Feature","properties":{"name":"Milio's Sandwiches","Address":"116 Martin Luther King Junior Boulevard","City":"Madison","Country":"United States","State":"WI"},"geometry":{"type":"Point","coordinates":[-89.382904,43.073195]}},{"type":"Feature","properties":{"name":"Cousins Subs","Address":"106 South Webster Street ","City":"Madison","Country":"United States","State":"WI"},"geometry":{"type":"Point","coordinates":[-89.380846,43.074911]}}]}