{"type":"Topology","objects":{"collection":{"type":"GeometryCollection","geometries":[{"type":"Point","properties":{"name":"Subway","Address":"1401 University Avenue","City":"Madison","Country":"United States","State":"WI"},"coordinates":[0,6813]},{"type":"Point","properties":{"name":"Subway","Address":"202 North Charter Street","City":"Madison","Country":"United States","State":"WI"},"coordinates":[1243,4797]},{"type":"Point","properties":{"name":"Jimmy Johns","Address":"1 North Randall Avenue","City":"Madison","Country":"United States","State":"WI"},"coordinates":[167,1084]},{"type":"Point","properties":{"name":"Capriotti's Sandwich Shop","Address":"902 Regent Street","City":"Madison","Country":"United States","State":"WI"},"coordinates":[3021,819]},{"type":"Point","properties":{"name":"Fraboni's Italian Specialties","Address":"822 Regend Street","City":"Madison","Country":"United States","State":"WI"},"coordinates":[3375,832]},{"type":"Point","properties":{"name":"Subway","Address":"1 South Park Street","City":"Madison","Country":"United States","State":"WI"},"coordinates":[3555,0]},{"type":"Point","properties":{"name":"Newell's Deli","Address":"35 North Park Street","City":"Madison","Country":"United States","State":"WI"},"coordinates":[3384,2201]},{"type":"Point","properties":{"name":"Milio's Sandwiches","Address":"377 East Campus Mall","City":"Madison","Country":"United States","State":"WI"},"coordinates":[5228,7320]},{"type":"Point","properties":{"name":"Subway","Address":"731 State Street","City":"Madison","Country":"United States","State":"WI"},"coordinates":[4032,8519]},{"type":"Point","properties":{"name":"Erbert & Gerbert's","Address":"540 University Avenue","City":"Madison","Country":"United States","State":"WI"},"coordinates":[5174,7176]},{"type":"Point","properties":{"name":"Potbelly Sandiwch Shop","Address":"564 State Street","City":"Madison","Country":"United States","State":"WI"},"coordinates":[5431,8818]},{"type":"Point","properties":{"name":"Cheba Hut","Address":"453 West GIlman Street","City":"Madison","Country":"United States","State":"WI"},"coordinates":[5508,7217]},{"type":"Point","properties":{"name":"Silver Mine Subs","Address":"311 North Frances Street","City":"Madison","Country":"United States","State":"WI"},"coordinates":[6346,8344]},{"type":"Point","properties":{"name":"Pita Pit","Address":"449 State Street","City":"Madison","Country":"United States","State":"WI"},"coordinates":[6054,8355]},{"type":"Point","properties":{"name":"Subway","Address":"462 State Street","City":"Madison","Country":"United States","State":"WI"},"coordinates":[6250,8896]},{"type":"Point","properties":{"name":"Which Wich","Address":"411 State Street","City":"Madison","Country":"United States","State":"WI"},"coordinates":[6461,8509]},{"type":"Point","properties":{"name":"Quiznos Sandwich","Address":"5 North Pickney Street","City":"Madison","Country":"United States","State":"WI"},"coordinates":[9999,9999]}]}},"arcs":[],"transform":{"scale":[0.000002611361136113633,8.831883188319532e-7],"translate":[-89.409206,43.067096]},"bbox":[-89.409206,43.067096,-89.383095,43.075927]}